{
"type": "FeatureCollection",
"crs": { "type": "name", "properties": { "name": "urn:ogc:def:crs:OGC:1.3:CRS84" } },
"features": [
{ "type": "Feature", "properties": { "name": "Nathanael Sheehan", "year_graduated": "2004", "course_title": "MSc Building and Urban Design in Development", "linkedin": "https://www.linkedin.com/", "twitter": "https://twitter.com","img": "assets/images/nathanael_500x500.jpg"}, "geometry": { "type": "Point", "coordinates": [ 11.5429503873952, 49.2029999478672, 0.0 ],"city": [121.4737, 31.2308, 0.0] } },
{ "type": "Feature", "properties": { "name": "Rita Lambert", "year_graduated": "2009", "course_title": "MSc Building and Urban Design in Development", "linkedin": "https://www.linkedin.com/", "twitter": "https://twitter.com","img": "assets/images/nathanael_500x500.jpg" }, "geometry": { "type": "Point", "coordinates": [ -150.4048, 63.1224, 105.5 ] } },
{ "type": "Feature", "properties": { "name": "Xi Ping", "year_graduated": "2009", "course_title": "MSc Development Administration and Planning", "linkedin": "https://www.linkedin.com/", "twitter": "https://twitter.com","img": "assets/images/nathanael_500x500.jpg" }, "geometry": { "type": "Point", "coordinates": [ -151.3597, 63.0781, 0.0 ] } },
{ "type": "Feature", "properties": { "name": "Setal Patel", "year_graduated": "2002", "course_title": "MSc Development Administration and Planning", "linkedin": "https://www.linkedin.com/", "twitter": "https://twitter.com","img": "assets/images/nathanael_500x500.jpg" }, "geometry": { "type": "Point", "coordinates": [ -118.497, 34.299667, 7.64 ] } },
{ "type": "Feature", "properties": { "name": "Ash Shankar", "year_graduated": "2020", "course_title": "MSc Environment and Sustainable Development", "linkedin": "https://www.linkedin.com/", "twitter": "https://twitter.com","img": "assets/images/nathanael_500x500.jpg" }, "geometry": { "type": "Point", "coordinates": [ -87.6901, 12.0623, 46.41 ] } },
{ "type": "Feature", "properties": { "name": "Ieke Hollands", "year_graduated": "2021", "course_title": "MSc Environment and Sustainable Development", "linkedin": "https://www.linkedin.com/", "twitter": "https://twitter.com","img": "assets/images/nathanael_500x500.jpg" }, "geometry": { "type": "Point", "coordinates": [ -151.5053, 63.0719, 0.0 ] } },
{ "type": "Feature", "properties": { "name": "Gregov Peta", "year_graduated": "2021", "course_title": "MSc Environment and Sustainable Development", "linkedin": "https://www.linkedin.com/", "twitter": "https://twitter.com","img": "assets/images/nathanael_500x500.jpg" }, "geometry": { "type": "Point", "coordinates": [ -178.4576, -20.2873, 614.26 ] } },
{ "type": "Feature", "properties": { "name": "Markus Brovni", "year_graduated": "2012", "course_title": "MSc Health in Urban Development", "linkedin": "https://www.linkedin.com/", "twitter": "https://twitter.com","img": "assets/images/nathanael_500x500.jpg" }, "geometry": { "type": "Point", "coordinates": [ -148.789, 63.1725, 7.5 ] } },
{ "type": "Feature", "properties": { "name": "Nara Abduvella", "year_graduated": "2017", "course_title": "MSc Social Development Practice", "linkedin": "https://www.linkedin.com/", "twitter": "https://twitter.com", "img": "assets/images/nathanael_500x500.jpg"}, "geometry": { "type": "Point", "coordinates": [ -120.993164, 36.421833, 6.37 ] } },
{ "type": "Feature", "properties": { "name": "Hannah Bates", "year_graduated": "1998", "course_title": "MSc Social Development Practice", "linkedin": "https://www.linkedin.com/", "twitter": "https://twitter.com","img": "assets/images/nathanael_500x500.jpg" }, "geometry": { "type": "Point", "coordinates": [ -117.0155, 33.656333, 12.37 ] } },
{ "type": "Feature", "properties": { "name": "Milo Travers", "year_graduated": "2009", "course_title": "MSc Urban Development Planning", "linkedin": "https://www.linkedin.com/", "twitter": "https://twitter.com","img": "assets/images/nathanael_500x500.jpg" }, "geometry": { "type": "Point", "coordinates": [ -1.49752766486381, 53.8087050711912, 10.8 ] } },
{ "type": "Feature", "properties": { "name": "Harry King", "year_graduated": "2012", "course_title": "MSc Urban Economic Development", "linkedin": "https://www.linkedin.com/", "twitter": "https://twitter.com","img": "assets/images/nathanael_500x500.jpg" }, "geometry": { "type": "Point", "coordinates": [ 121.4737, 31.2308, 0.0 ] } },
{ "type": "Feature", "properties": { "name": "Harry King", "year_graduated": "2012", "course_title": "MSc Urban Economic Development", "linkedin": "https://www.linkedin.com/", "twitter": "https://twitter.com","img": "assets/images/nathanael_500x500.jpg" }, "geometry": { "type": "Point", "coordinates": [ 121.4737, 31.2304, 0.0 ] } },
{ "type": "Feature", "properties": { "name": "Harry King", "year_graduated": "2012", "course_title": "MSc Urban Economic Development", "linkedin": "https://www.linkedin.com/", "twitter": "https://twitter.com","img": "assets/images/nathanael_500x500.jpg" }, "geometry": { "type": "Point", "coordinates": [ 121.4737, 31.2302, 0.0 ] } },
{ "type": "Feature", "properties": { "name": "Harry King", "year_graduated": "2012", "course_title": "MSc Urban Economic Development", "linkedin": "https://www.linkedin.com/", "twitter": "https://twitter.com","img": "assets/images/nathanael_500x500.jpg" }, "geometry": { "type": "Point", "coordinates": [ 121.4737, 31.2301, 0.0 ] } },
{ "type": "Feature", "properties": { "name": "Harry King", "year_graduated": "2012", "course_title": "MSc Urban Economic Development", "linkedin": "https://www.linkedin.com/", "twitter": "https://twitter.com","img": "assets/images/nathanael_500x500.jpg" }, "geometry": { "type": "Point", "coordinates": [ 121.4737, 31.2307, 0.0 ] } },
{ "type": "Feature", "properties": { "name": "Harry King", "year_graduated": "2012", "course_title": "MSc Urban Economic Development", "linkedin": "https://www.linkedin.com/", "twitter": "https://twitter.com","img": "assets/images/nathanael_500x500.jpg" }, "geometry": { "type": "Point", "coordinates": [ 121.4737, 31.2300, 0.0 ] } },
{ "type": "Feature", "properties": { "name": "Harry King", "year_graduated": "2012", "course_title": "MSc Urban Economic Development", "linkedin": "https://www.linkedin.com/", "twitter": "https://twitter.com","img": "assets/images/nathanael_500x500.jpg" }, "geometry": { "type": "Point", "coordinates": [ 121.4737, 31.2301, 0.0 ] } },
{ "type": "Feature", "properties": { "name": "Harry King", "year_graduated": "2012", "course_title": "MSc Urban Economic Development", "linkedin": "https://www.linkedin.com/", "twitter": "https://twitter.com","img": "assets/images/nathanael_500x500.jpg" }, "geometry": { "type": "Point", "coordinates": [ 121.4737, 31.2309, 0.0 ] } },
{ "type": "Feature", "properties": { "name": "Harry King", "year_graduated": "2012", "course_title": "MSc Urban Economic Development", "linkedin": "https://www.linkedin.com/", "twitter": "https://twitter.com","img": "assets/images/nathanael_500x500.jpg" }, "geometry": { "type": "Point", "coordinates": [ 121.4737, 31.2311, 0.0 ] } },
{ "type": "Feature", "properties": { "name": "Harry King", "year_graduated": "2012", "course_title": "MSc Urban Economic Development", "linkedin": "https://www.linkedin.com/", "twitter": "https://twitter.com","img": "assets/images/nathanael_500x500.jpg" }, "geometry": { "type": "Point", "coordinates": [ 121.4737, 31.2313, 0.0 ] } },
{ "type": "Feature", "properties": { "name": "Harry King", "year_graduated": "2012", "course_title": "MSc Urban Economic Development", "linkedin": "https://www.linkedin.com/", "twitter": "https://twitter.com","img": "assets/images/nathanael_500x500.jpg" }, "geometry": { "type": "Point", "coordinates": [ 121.4737, 31.2316, 0.0 ] } },
{ "type": "Feature", "properties": { "name": "Harry King", "year_graduated": "2012", "course_title": "MSc Urban Economic Development", "linkedin": "https://www.linkedin.com/", "twitter": "https://twitter.com","img": "assets/images/nathanael_500x500.jpg" }, "geometry": { "type": "Point", "coordinates": [ -77.042791,-12.046378, 0.0 ] } },
{ "type": "Feature", "properties": { "name": "Harry King", "year_graduated": "2012", "course_title": "MSc Urban Economic Development", "linkedin": "https://www.linkedin.com/", "twitter": "https://twitter.com","img": "assets/images/nathanael_500x500.jpg" }, "geometry": { "type": "Point", "coordinates": [ -77.042792,-12.046377, 0.0 ] } },
{ "type": "Feature", "properties": { "name": "Harry King", "year_graduated": "2012", "course_title": "MSc Urban Economic Development", "linkedin": "https://www.linkedin.com/", "twitter": "https://twitter.com","img": "assets/images/nathanael_500x500.jpg" }, "geometry": { "type": "Point", "coordinates": [ -77.042793,-12.046376, 0.0 ] } },
{ "type": "Feature", "properties": { "name": "Harry King", "year_graduated": "2012", "course_title": "MSc Urban Economic Development", "linkedin": "https://www.linkedin.com/", "twitter": "https://twitter.com","img": "assets/images/nathanael_500x500.jpg" }, "geometry": { "type": "Point", "coordinates": [ -77.042794,-12.046375, 0.0 ] } },
{ "type": "Feature", "properties": { "name": "Harry King", "year_graduated": "2012", "course_title": "MSc Urban Economic Development", "linkedin": "https://www.linkedin.com/", "twitter": "https://twitter.com","img": "assets/images/nathanael_500x500.jpg" }, "geometry": { "type": "Point", "coordinates": [ -77.042795,-12.046374, 0.0 ] } },
{ "type": "Feature", "properties": { "name": "Harry King", "year_graduated": "2012", "course_title": "MSc Urban Economic Development", "linkedin": "https://www.linkedin.com/", "twitter": "https://twitter.com","img": "assets/images/nathanael_500x500.jpg" }, "geometry": { "type": "Point", "coordinates": [ -77.042796,-12.046373, 0.0 ] } },
{ "type": "Feature", "properties": { "name": "Harry King", "year_graduated": "2012", "course_title": "MSc Urban Economic Development", "linkedin": "https://www.linkedin.com/", "twitter": "https://twitter.com","img": "assets/images/nathanael_500x500.jpg" }, "geometry": { "type": "Point", "coordinates": [ -77.042797,-12.046372, 0.0 ] } },
{ "type": "Feature", "properties": { "name": "Harry King", "year_graduated": "2012", "course_title": "MSc Urban Economic Development", "linkedin": "https://www.linkedin.com/", "twitter": "https://twitter.com","img": "assets/images/nathanael_500x500.jpg" }, "geometry": { "type": "Point", "coordinates": [ -77.042798,-12.046371, 0.0 ] } },
{ "type": "Feature", "properties": { "name": "Sam Smith", "year_graduated": "2017", "course_title": "MSc Urban Economic Development", "linkedin": "https://www.linkedin.com/", "twitter": "https://twitter.com","img": "assets/images/nathanael_500x500.jpg" }, "geometry": { "type": "Point", "coordinates": [ -155.011833, 19.399322, 2.609 ] } }
]
}
